{
  "type": "FeatureCollection",
  "crs": {
    "type": "name",
    "properties": {
      "name": "urn:ogc:def:crs:OGC:1.3:CRS84"
    }
  },
  "features": [
    {
      "type": "Feature",
      "properties": {
        "Name": "Ang Tropeang Thmor"
      },
      "geometry": {
        "type": "Point",
        "coordinates": [
          103.316670007972746,
          13.849999996234514
        ]
      }
    },
    {
      "type": "Feature",
      "properties": {
        "Name": "Bassac Marsh"
      },
      "geometry": {
        "type": "Point",
        "coordinates": [
          105.149999995145052,
          11.283330003071194
        ]
      }
    },
    {
      "type": "Feature",
      "properties": {
        "Name": "Basset Marsh"
      },
      "geometry": {
        "type": "Point",
        "coordinates": [
          104.83332999734138,
          11.650000001481443
        ]
      }
    },
    {
      "type": "Feature",
      "properties": {
        "Name": "Boeung Chhmar / Moat Khla"
      },
      "geometry": {
        "type": "Point",
        "coordinates": [
          104.233330002764575,
          12.849999998944941
        ]
      }
    },
    {
      "type": "Feature",
      "properties": {
        "Name": "Boeung Prek Lapouv"
      },
      "geometry": {
        "type": "Point",
        "coordinates": [
          105.033329993708634,
          10.716670002805055
        ]
      }
    },
    {
      "type": "Feature",
      "properties": {
        "Name": "Boeung Veal Samnap"
      },
      "geometry": {
        "type": "Point",
        "coordinates": [
          105.033329996170906,
          11.616670002325149
        ]
      }
    },
    {
      "type": "Feature",
      "properties": {
        "Name": "Central Cardamoms"
      },
      "geometry": {
        "type": "Point",
        "coordinates": [
          103.533330002682959,
          11.883329998430643
        ]
      }
    },
    {
      "type": "Feature",
      "properties": {
        "Name": "Chhep"
      },
      "geometry": {
        "type": "Point",
        "coordinates": [
          105.499999999401879,
          14.066670000139869
        ]
      }
    },
    {
      "type": "Feature",
      "properties": {
        "Name": "Chhnuk Tru"
      },
      "geometry": {
        "type": "Point",
        "coordinates": [
          104.416670000811422,
          12.533329999947478
        ]
      }
    },
    {
      "type": "Feature",
      "properties": {
        "Name": "Dei Roneat"
      },
      "geometry": {
        "type": "Point",
        "coordinates": [
          103.866670004120607,
          12.816669998491573
        ]
      }
    },
    {
      "type": "Feature",
      "properties": {
        "Name": "Kirirom"
      },
      "geometry": {
        "type": "Point",
        "coordinates": [
          103.95000000014376,
          11.299999999595899
        ]
      }
    },
    {
      "type": "Feature",
      "properties": {
        "Name": "Koh Kapik"
      },
      "geometry": {
        "type": "Point",
        "coordinates": [
          103.033330004078465,
          11.499999997961259
        ]
      }
    },
    {
      "type": "Feature",
      "properties": {
        "Name": "Koh Rong Archipelago"
      },
      "geometry": {
        "type": "Point",
        "coordinates": [
          103.250000001594245,
          10.716669998741761
        ]
      }
    },
    {
      "type": "Feature",
      "properties": {
        "Name": "Lomphat"
      },
      "geometry": {
        "type": "Point",
        "coordinates": [
          106.633329992676593,
          13.383330003714413
        ]
      }
    },
    {
      "type": "Feature",
      "properties": {
        "Name": "Lower Stung Sen"
      },
      "geometry": {
        "type": "Point",
        "coordinates": [
          104.516670000286155,
          12.59999999926986
        ]
      }
    },
    {
      "type": "Feature",
      "properties": {
        "Name": "Mekong River from Kratie to Laos"
      },
      "geometry": {
        "type": "Point",
        "coordinates": [
          105.966669995934765,
          13.28333000246719
        ]
      }
    },
    {
      "type": "Feature",
      "properties": {
        "Name": "Mondulkiri / Kratie Lowlands"
      },
      "geometry": {
        "type": "Point",
        "coordinates": [
          106.633329990122803,
          12.466670004160134
        ]
      }
    },
    {
      "type": "Feature",
      "properties": {
        "Name": "Northern Santuk"
      },
      "geometry": {
        "type": "Point",
        "coordinates": [
          105.116669997869849,
          12.683330000945471
        ]
      }
    },
    {
      "type": "Feature",
      "properties": {
        "Name": "O Skach"
      },
      "geometry": {
        "type": "Point",
        "coordinates": [
          105.133330001210922,
          13.966669999531657
        ]
      }
    },
    {
      "type": "Feature",
      "properties": {
        "Name": "Phnom Aural"
      },
      "geometry": {
        "type": "Point",
        "coordinates": [
          104.150000001019848,
          12.049999999249591
        ]
      }
    },
    {
      "type": "Feature",
      "properties": {
        "Name": "Phnom Bokor"
      },
      "geometry": {
        "type": "Point",
        "coordinates": [
          104.033329999156393,
          10.850000000450542
        ]
      }
    },
    {
      "type": "Feature",
      "properties": {
        "Name": "Phnom Samkos"
      },
      "geometry": {
        "type": "Point",
        "coordinates": [
          102.983330005896462,
          12.166669996966721
        ]
      }
    },
    {
      "type": "Feature",
      "properties": {
        "Name": "Preah Net Preah / Kra Lanh / Pourk"
      },
      "geometry": {
        "type": "Point",
        "coordinates": [
          103.433330006946392,
          13.433329997037301
        ]
      }
    },
    {
      "type": "Feature",
      "properties": {
        "Name": "Prek Taek Sap"
      },
      "geometry": {
        "type": "Point",
        "coordinates": [
          103.683329999121014,
          10.566670000423224
        ]
      }
    },
    {
      "type": "Feature",
      "properties": {
        "Name": "Prek Toal"
      },
      "geometry": {
        "type": "Point",
        "coordinates": [
          103.650000005023571,
          13.116669997631673
        ]
      }
    },
    {
      "type": "Feature",
      "properties": {
        "Name": "Sekong River"
      },
      "geometry": {
        "type": "Point",
        "coordinates": [
          106.299999995829509,
          13.983330002071183
        ]
      }
    },
    {
      "type": "Feature",
      "properties": {
        "Name": "Sesan River"
      },
      "geometry": {
        "type": "Point",
        "coordinates": [
          107.383329990274419,
          13.833330004827561
        ]
      }
    },
    {
      "type": "Feature",
      "properties": {
        "Name": "Snoul / Keo Sema / O Reang"
      },
      "geometry": {
        "type": "Point",
        "coordinates": [
          107.033329987890127,
          12.250000006157428
        ]
      }
    },
    {
      "type": "Feature",
      "properties": {
        "Name": "Sre Ambel"
      },
      "geometry": {
        "type": "Point",
        "coordinates": [
          103.683330000530361,
          11.099999999744155
        ]
      }
    },
    {
      "type": "Feature",
      "properties": {
        "Name": "Stung / Chi Kreng / Kampong Svay"
      },
      "geometry": {
        "type": "Point",
        "coordinates": [
          104.416670001481464,
          12.949999999162717
        ]
      }
    },
    {
      "type": "Feature",
      "properties": {
        "Name": "Stung / Prasat Balang"
      },
      "geometry": {
        "type": "Point",
        "coordinates": [
          104.716670001028248,
          13.01666999923656
        ]
      }
    },
    {
      "type": "Feature",
      "properties": {
        "Name": "Stung Kampong Smach"
      },
      "geometry": {
        "type": "Point",
        "coordinates": [
          103.849999999137381,
          10.616670000933343
        ]
      }
    },
    {
      "type": "Feature",
      "properties": {
        "Name": "Stung Sen / Santuk / Baray"
      },
      "geometry": {
        "type": "Point",
        "coordinates": [
          104.883329998606868,
          12.416670000840107
        ]
      }
    },
    {
      "type": "Feature",
      "properties": {
        "Name": "Upper Srepok Catchment"
      },
      "geometry": {
        "type": "Point",
        "coordinates": [
          107.266669988036625,
          12.966670005030695
        ]
      }
    },
    {
      "type": "Feature",
      "properties": {
        "Name": "Upper Stung Sen Catchment"
      },
      "geometry": {
        "type": "Point",
        "coordinates": [
          104.733330002573439,
          13.999999998742194
        ]
      }
    },
    {
      "type": "Feature",
      "properties": {
        "Name": "Veal Srongae"
      },
      "geometry": {
        "type": "Point",
        "coordinates": [
          104.64999999964536,
          12.599999999857918
        ]
      }
    },
    {
      "type": "Feature",
      "properties": {
        "Name": "Virachey"
      },
      "geometry": {
        "type": "Point",
        "coordinates": [
          107.183329992432505,
          14.33333000362342
        ]
      }
    },
    {
      "type": "Feature",
      "properties": {
        "Name": "Western Siem Pang"
      },
      "geometry": {
        "type": "Point",
        "coordinates": [
          106.233329996754719,
          14.116670001938349
        ]
      }
    },
    {
      "type": "Feature",
      "properties": {
        "Name": "Yot Dom"
      },
      "geometry": {
        "type": "Point",
        "coordinates": [
          104.983330002358329,
          14.216669999148982
        ]
      }
    }
  ]
}